{
  "buildings": [
    {
      "name": "Головний корпус ЛНТУ",
      "address": "м. Луцьк, вул. Львівська, 75",
      "latitude": 50.7258,
      "longitude": 25.2960
    },
    {
      "name": "Навчально-лабораторний корпус №2",
      "address": "м. Луцьк, вул. Потебні, 56",
      "latitude": 50.726944,
      "longitude": 25.306389
    },
    {
      "name": "Корпус A ЛНТУ",
      "address": "м. Луцьк, вул. Львівська, 75",
      "latitude": 50.7258,
      "longitude": 25.2960
    },
    {
      "name": "Корпус Б ЛНТУ",
      "address": "м. Луцьк, вул. Львівська, 75",
      "latitude": 50.7258,
      "longitude": 25.2960
    },
    {
      "name": "Корпус В ЛНТУ",
      "address": "м. Луцьк, вул. Львівська, 75",
      "latitude": 50.7258,
      "longitude": 25.2960
    },
    {
      "name": "Корпус Д ЛНТУ",
      "address": "м. Луцьк, вул. Львівська, 75",
      "latitude": 50.7258,
      "longitude": 25.2960
    },
    {
      "name": "Корпус П ЛНТУ",
      "address": "м. Луцьк, вул. Львівська, 75",
      "latitude": 50.7258,
      "longitude": 25.2960
    },
    {
      "name": "Корпус С ЛНТУ",
      "address": "м. Луцьк, вул. Львівська, 75",
      "latitude": 50.7258,
      "longitude": 25.2960
    }
  ],
  "dormitories": [
    {
      "name": "Гуртожиток №1 ЛНТУ",
      "address": "м. Луцьк, вул. Володимира Івасюка (Даньшина), 8",
      "latitude": 50.727674,
      "longitude": 25.299695
    },
    {
      "name": "Гуртожиток №2 ЛНТУ",
      "address": "м. Луцьк, пр-т Відродження, 22",
      "latitude": 50.754167,
      "longitude": 25.378611
    }
  ],
  "other": [
    {
      "name": "Спорткомплекс ЛНТУ",
      "address": "м. Луцьк, вул. Львівська, 75",
      "latitude": 50.7258,
      "longitude": 25.2960
    },
    {
      "name": "База відпочинку ЛНТУ (о. Пісочне)",
      "address": "Шацький район, оз. Пісочне",
      "latitude": 51.567833,
      "longitude": 23.914269
    }
  ]
}
